{
"type": "FeatureCollection",
"crs": { "type": "name", "properties": { "name": "urn:ogc:def:crs:OGC:1.3:CRS84" } },
"features": [
{ "type": "Feature", "properties": { "Name": "gh3_seed_temp", "description": null, "timestamp": null, "begin": null, "end": null, "altitudeMode": null, "tessellate": -1, "extrude": 0, "visibility": -1, "drawOrder": null, "icon": null }, "geometry": { "type": "Point", "coordinates": [ 1.1037076, 51.3092622, 0.0 ] } },
{ "type": "Feature", "properties": { "Name": "gh3_east_door_temp", "description": null, "timestamp": null, "begin": null, "end": null, "altitudeMode": null, "tessellate": -1, "extrude": 0, "visibility": -1, "drawOrder": null, "icon": null }, "geometry": { "type": "Point", "coordinates": [ 1.1049897, 51.3095137, 0.0 ] } },
{ "type": "Feature", "properties": { "Name": "gh3_west_door_temp", "description": null, "timestamp": null, "begin": null, "end": null, "altitudeMode": null, "tessellate": -1, "extrude": 0, "visibility": -1, "drawOrder": null, "icon": null }, "geometry": { "type": "Point", "coordinates": [ 1.1029941, 51.3088598, 0.0 ] } },
{ "type": "Feature", "properties": { "Name": "gh1_north_door_temp", "description": null, "timestamp": null, "begin": null, "end": null, "altitudeMode": null, "tessellate": -1, "extrude": 0, "visibility": -1, "drawOrder": null, "icon": null }, "geometry": { "type": "Point", "coordinates": [ 1.102699, 51.3079142, 0.0 ] } },
{ "type": "Feature", "properties": { "Name": "gh1_south_door_temp", "description": null, "timestamp": null, "begin": null, "end": null, "altitudeMode": null, "tessellate": -1, "extrude": 0, "visibility": -1, "drawOrder": null, "icon": null }, "geometry": { "type": "Point", "coordinates": [ 1.1034608, 51.3072972, 0.0 ] } },
{ "type": "Feature", "properties": { "Name": "gh1_co2Production_gas", "description": null, "timestamp": null, "begin": null, "end": null, "altitudeMode": null, "tessellate": -1, "extrude": 0, "visibility": -1, "drawOrder": null, "icon": null }, "geometry": { "type": "Point", "coordinates": [ 1.1027312, 51.3072032, 0.0 ] } },
{ "type": "Feature", "properties": { "Name": "Solar", "description": null, "timestamp": null, "begin": null, "end": null, "altitudeMode": null, "tessellate": -1, "extrude": 0, "visibility": -1, "drawOrder": null, "icon": null }, "geometry": { "type": "Point", "coordinates": [ 1.1055529, 51.3086855, 0.0 ] } },
{ "type": "Feature", "properties": { "Name": "Muck", "description": null, "timestamp": null, "begin": null, "end": null, "altitudeMode": null, "tessellate": -1, "extrude": 0, "visibility": -1, "drawOrder": null, "icon": null }, "geometry": { "type": "Point", "coordinates": [ 1.105738, 51.3078303, 0.0 ] } },
{ "type": "Feature", "properties": { "Name": "gh3_seed_lux", "description": null, "timestamp": null, "begin": null, "end": null, "altitudeMode": null, "tessellate": -1, "extrude": 0, "visibility": -1, "drawOrder": null, "icon": null }, "geometry": { "type": "Point", "coordinates": [ 1.1035842, 51.3093695, 0.0 ] } },
{ "type": "Feature", "properties": { "Name": "gh3_west_door_lux", "description": null, "timestamp": null, "begin": null, "end": null, "altitudeMode": null, "tessellate": -1, "extrude": 0, "visibility": -1, "drawOrder": null, "icon": null }, "geometry": { "type": "Point", "coordinates": [ 1.1028868, 51.3089571, 0.0 ] } },
{ "type": "Feature", "properties": { "Name": "gh3_east_door_lux", "description": null, "timestamp": null, "begin": null, "end": null, "altitudeMode": null, "tessellate": -1, "extrude": 0, "visibility": -1, "drawOrder": null, "icon": null }, "geometry": { "type": "Point", "coordinates": [ 1.1048717, 51.3096143, 0.0 ] } },
{ "type": "Feature", "properties": { "Name": "gh1_north_door_lux", "description": null, "timestamp": null, "begin": null, "end": null, "altitudeMode": null, "tessellate": -1, "extrude": 0, "visibility": -1, "drawOrder": null, "icon": null }, "geometry": { "type": "Point", "coordinates": [ 1.1028814, 51.3079745, 0.0 ] } },
{ "type": "Feature", "properties": { "Name": "gh1_south_door_lux", "description": null, "timestamp": null, "begin": null, "end": null, "altitudeMode": null, "tessellate": -1, "extrude": 0, "visibility": -1, "drawOrder": null, "icon": null }, "geometry": { "type": "Point", "coordinates": [ 1.1032033, 51.3072569, 0.0 ] } },
{ "type": "Feature", "properties": { "Name": "gh1_plantzone_1_temp", "description": null, "timestamp": null, "begin": null, "end": null, "altitudeMode": null, "tessellate": -1, "extrude": 0, "visibility": -1, "drawOrder": null, "icon": null }, "geometry": { "type": "Point", "coordinates": [ 1.1032059, 51.3076375, 0.0 ] } },
{ "type": "Feature", "properties": { "Name": "gh1_plantzone_1_lux", "description": null, "timestamp": null, "begin": null, "end": null, "altitudeMode": null, "tessellate": -1, "extrude": 0, "visibility": -1, "drawOrder": null, "icon": null }, "geometry": { "type": "Point", "coordinates": [ 1.1029619, 51.3076023, 0.0 ] } },
{ "type": "Feature", "properties": { "Name": "gh3_co2Production_gas", "description": null, "timestamp": null, "begin": null, "end": null, "altitudeMode": null, "tessellate": -1, "extrude": 0, "visibility": -1, "drawOrder": null, "icon": null }, "geometry": { "type": "Point", "coordinates": [ 1.1035788, 51.309896, 0.0 ] } },
{ "type": "Feature", "properties": { "Name": "outside_field_moisture", "description": null, "timestamp": null, "begin": null, "end": null, "altitudeMode": null, "tessellate": -1, "extrude": 0, "visibility": -1, "drawOrder": null, "icon": null }, "geometry": { "type": "Point", "coordinates": [ 1.1061537, 51.3074715, 0.0 ] } },
{ "type": "Feature", "properties": { "Name": "outside_heap_temp", "description": null, "timestamp": null, "begin": null, "end": null, "altitudeMode": null, "tessellate": -1, "extrude": 0, "visibility": -1, "drawOrder": null, "icon": null }, "geometry": { "type": "Point", "coordinates": [ 1.1058989, 51.3078924, 0.0 ] } },
{ "type": "Feature", "properties": { "Name": "outside_field_lux", "description": null, "timestamp": null, "begin": null, "end": null, "altitudeMode": null, "tessellate": -1, "extrude": 0, "visibility": -1, "drawOrder": null, "icon": null }, "geometry": { "type": "Point", "coordinates": [ 1.1058426, 51.3074044, 0.0 ] } },
{ "type": "Feature", "properties": { "Name": "outside_field_temp", "description": null, "timestamp": null, "begin": null, "end": null, "altitudeMode": null, "tessellate": -1, "extrude": 0, "visibility": -1, "drawOrder": null, "icon": null }, "geometry": { "type": "Point", "coordinates": [ 1.1064756, 51.3075386, 0.0 ] } },
{ "type": "Feature", "properties": { "Name": "gh2_co2Production_gas", "description": null, "timestamp": null, "begin": null, "end": null, "altitudeMode": null, "tessellate": -1, "extrude": 0, "visibility": -1, "drawOrder": null, "icon": null }, "geometry": { "type": "Point", "coordinates": [ 1.0991156, 51.3081959, 0.0 ] } },
{ "type": "Feature", "properties": { "Name": "gh2_south_door_temp", "description": null, "timestamp": null, "begin": null, "end": null, "altitudeMode": null, "tessellate": -1, "extrude": 0, "visibility": -1, "drawOrder": null, "icon": null }, "geometry": { "type": "Point", "coordinates": [ 1.100277, 51.3079259, 0.0 ] } },
{ "type": "Feature", "properties": { "Name": "gh2_south_door_lux", "description": null, "timestamp": null, "begin": null, "end": null, "altitudeMode": null, "tessellate": -1, "extrude": 0, "visibility": -1, "drawOrder": null, "icon": null }, "geometry": { "type": "Point", "coordinates": [ 1.100505, 51.3080282, 0.0 ] } },
{ "type": "Feature", "properties": { "Name": "gh2_north_door_temp", "description": null, "timestamp": null, "begin": null, "end": null, "altitudeMode": null, "tessellate": -1, "extrude": 0, "visibility": -1, "drawOrder": null, "icon": null }, "geometry": { "type": "Point", "coordinates": [ 1.0997272, 51.308444, 0.0 ] } },
{ "type": "Feature", "properties": { "Name": "gh2_north_door_lux", "description": null, "timestamp": null, "begin": null, "end": null, "altitudeMode": null, "tessellate": -1, "extrude": 0, "visibility": -1, "drawOrder": null, "icon": null }, "geometry": { "type": "Point", "coordinates": [ 1.0999632, 51.3085513, 0.0 ] } },
{ "type": "Feature", "properties": { "Name": "gh2_plantzone_1_temp", "description": null, "timestamp": null, "begin": null, "end": null, "altitudeMode": null, "tessellate": -1, "extrude": 0, "visibility": -1, "drawOrder": null, "icon": null }, "geometry": { "type": "Point", "coordinates": [ 1.0996333, 51.3080215, 0.0 ] } },
{ "type": "Feature", "properties": { "Name": "gh2_plantzone_1_moisture", "description": null, "timestamp": null, "begin": null, "end": null, "altitudeMode": null, "tessellate": -1, "extrude": 0, "visibility": -1, "drawOrder": null, "icon": null }, "geometry": { "type": "Point", "coordinates": [ 1.0998398, 51.3081036, 0.0 ] } },
{ "type": "Feature", "properties": { "Name": "gh2_plantzone_1_lux", "description": null, "timestamp": null, "begin": null, "end": null, "altitudeMode": null, "tessellate": -1, "extrude": 0, "visibility": -1, "drawOrder": null, "icon": null }, "geometry": { "type": "Point", "coordinates": [ 1.1000517, 51.3081959, 0.0 ] } },
{ "type": "Feature", "properties": { "Name": "gh2_mains_temp", "description": null, "timestamp": null, "begin": null, "end": null, "altitudeMode": null, "tessellate": -1, "extrude": 0, "visibility": -1, "drawOrder": null, "icon": null }, "geometry": { "type": "Point", "coordinates": [ 1.1006767, 51.3086117, 0.0 ] } },
{ "type": "Feature", "properties": { "Name": "gh2_mains_moisture", "description": null, "timestamp": null, "begin": null, "end": null, "altitudeMode": null, "tessellate": -1, "extrude": 0, "visibility": -1, "drawOrder": null, "icon": null }, "geometry": { "type": "Point", "coordinates": [ 1.100843, 51.3084775, 0.0 ] } },
{ "type": "Feature", "properties": { "Name": "gh2_mains_lux", "description": null, "timestamp": null, "begin": null, "end": null, "altitudeMode": null, "tessellate": -1, "extrude": 0, "visibility": -1, "drawOrder": null, "icon": null }, "geometry": { "type": "Point", "coordinates": [ 1.1009985, 51.3083635, 0.0 ] } },
{ "type": "Feature", "properties": { "Name": "gh3_seed_moisture", "description": null, "timestamp": null, "begin": null, "end": null, "altitudeMode": null, "tessellate": -1, "extrude": 0, "visibility": -1, "drawOrder": null, "icon": null }, "geometry": { "type": "Point", "coordinates": [ 1.1038417, 51.3091482, 0.0 ] } },
{ "type": "Feature", "properties": { "Name": "house_store_temp", "description": null, "timestamp": null, "begin": null, "end": null, "altitudeMode": null, "tessellate": -1, "extrude": 0, "visibility": -1, "drawOrder": null, "icon": null }, "geometry": { "type": "Point", "coordinates": [ 1.1066566, 51.3084985, 0.0 ] } },
{ "type": "Feature", "properties": { "Name": "house_store_lux", "description": null, "timestamp": null, "begin": null, "end": null, "altitudeMode": null, "tessellate": -1, "extrude": 0, "visibility": -1, "drawOrder": null, "icon": null }, "geometry": { "type": "Point", "coordinates": [ 1.1068001, 51.3083669, 0.0 ] } },
{ "type": "Feature", "properties": { "Name": "gh1_plantzone_1_moisture", "description": null, "timestamp": null, "begin": null, "end": null, "altitudeMode": null, "tessellate": -1, "extrude": 0, "visibility": -1, "drawOrder": null, "icon": null }, "geometry": { "type": "Point", "coordinates": [ 1.1034286, 51.3076727, 0.0 ] } },
{ "type": "Feature", "properties": { "Name": "gh1_co2Production_temp", "description": null, "timestamp": null, "begin": null, "end": null, "altitudeMode": null, "tessellate": -1, "extrude": 0, "visibility": -1, "drawOrder": null, "icon": null }, "geometry": { "type": "Point", "coordinates": [ 1.102581, 51.3072502, 0.0 ] } }
]
}
